{"Atherton Library":{"name":"Atherton Library","street_address":"2 Dinkelspiel Station Lane","city":"Atherton","state":"CA","zipcode":"94027","phones":[[{"number":"650.328.2422"}]],"coordinates":[-122.1967066,37.4633126],"type":"Library","business_hours":{"sunday":[{"opens_at":"1:00 PM","closes_at":"5:00 PM"}],"monday":[{"opens_at":"10:00 AM","closes_at":"8:00 PM"}],"tuesday":[{"opens_at":"10:00 AM","closes_at":"8:00 PM"}],"wednesday":[{"opens_at":"10:00 AM","closes_at":"8:00 PM"}],"thursday":[{"opens_at":"10:00 AM","closes_at":"6:00 PM"}],"friday":[{"opens_at":"10:00 AM","closes_at":"6:00 PM"}],"saturday":[{"opens_at":"10:00 AM","closes_at":"5:00 PM"}]}},"Burlingame Main":{"name":"Burlingame Main","street_address":"480 Primrose Road at Bellevue Avenue","city":"Burlingame","state":"CA","zipcode":"94010","phones":[[{"number":"650.558.7400"}]],"coordinates":[-122.348862,37.5792209],"type":"Library","business_hours":{"sunday":[{"opens_at":"1:00 PM","closes_at":"5:00 PM"}],"monday":[{"opens_at":"10:00 AM","closes_at":"9:00 PM"}],"tuesday":[{"opens_at":"10:00 AM","closes_at":"9:00 PM"}],"wednesday":[{"opens_at":"10:00 AM","closes_at":"9:00 PM"}],"thursday":[{"opens_at":"10:00 AM","closes_at":"9:00 PM"}],"friday":[{"opens_at":"10:00 AM","closes_at":"5:00 PM"}],"saturday":[{"opens_at":"10:00 AM","closes_at":"5:00 PM"}]}},"Burlingame, Easton Branch":{"name":"Burlingame, Easton Branch","street_address":"1800 Easton Drive","city":"Burlingame","state":"CA","zipcode":"94010","phones":[[{"number":"650.340.6180"}]],"coordinates":[-122.3714479,37.58384909999999],"type":"Library","business_hours":{"sunday":[{"opens_at":": ","closes_at":": "}],"monday":[{"opens_at":"2:00 PM","closes_at":"8:00 PM"}],"tuesday":[{"opens_at":"2:00 PM","closes_at":"8:00 PM"}],"wednesday":[{"opens_at":"2:00 PM","closes_at":"8:00 PM"}],"thursday":[{"opens_at":"2:00 PM","closes_at":"8:00 PM"}],"friday":[{"opens_at":"2:00 PM","closes_at":"5:00 PM"}],"saturday":[{"opens_at":"2:00 PM","closes_at":"5:00 PM"}]}},"Belmont Library":{"name":"Belmont Library","street_address":"1110 Alameda de las Pulgas","city":"Belmont","state":"CA","zipcode":"94002","phones":[[{"number":"650.591.8286"}]],"coordinates":[-122.2926159,37.5088658],"type":"Library","business_hours":{"sunday":[{"opens_at":"1:00 PM","closes_at":"5:00 PM"}],"monday":[{"opens_at":"10:00 AM","closes_at":"9:00 PM"}],"tuesday":[{"opens_at":"10:00 AM","closes_at":"9:00 PM"}],"wednesday":[{"opens_at":"10:00 AM","closes_at":"9:00 PM"}],"thursday":[{"opens_at":"10:00 AM","closes_at":"6:00 PM"}],"friday":[{"opens_at":"10:00 AM","closes_at":"6:00 PM"}],"saturday":[{"opens_at":"10:00 AM","closes_at":"5:00 PM"}]}},"Bookmobile Library":{"name":"Bookmobile Library","street_address":"620 Correas","city":"Half Moon Bay","state":"CA","zipcode":"94019","phones":[[{"number":"650.726.2316"}]],"coordinates":[-122.430875,37.4615401],"type":"Library","business_hours":{"sunday":[{"opens_at":" ","closes_at":" "}],"monday":[{"opens_at":" ","closes_at":" "}],"tuesday":[{"opens_at":" ","closes_at":" "}],"wednesday":[{"opens_at":" ","closes_at":" "}],"thursday":[{"opens_at":" ","closes_at":" "}],"friday":[{"opens_at":" ","closes_at":" "}],"saturday":[{"opens_at":" ","closes_at":" "}]}},"Brisbane Library":{"name":"Brisbane Library","street_address":"250 Visitacion Avenue","city":"Brisbane","state":"CA","zipcode":"94005","phones":[[{"number":"415.467.2060"}]],"coordinates":[-122.4036187,37.68280439999999],"type":"Library","business_hours":{"sunday":[{"opens_at":": ","closes_at":": "}],"monday":[{"opens_at":"12:00 PM","closes_at":"8:00 PM"}],"tuesday":[{"opens_at":"12:00 PM","closes_at":"8:00 PM"}],"wednesday":[{"opens_at":"12:00 PM","closes_at":"8:00 PM"}],"thursday":[{"opens_at":"12:00 PM","closes_at":"8:00 PM"}],"friday":[{"opens_at":"12:00 PM","closes_at":"6:00 PM"}],"saturday":[{"opens_at":"12:00 PM","closes_at":"5:00 PM"}]}},"Cañada College Library":{"name":"Cañada College Library","street_address":"4200 Farm Hill Boulevard","city":"Redwood City","state":"CA","zipcode":"94061","phones":[[{"number":"650.306.3267"}]],"coordinates":[-122.2605591,37.447488],"type":"Library","business_hours":{"sunday":[{"opens_at":": ","closes_at":": "}],"monday":[{"opens_at":"8:00 AM","closes_at":"9:00 PM"}],"tuesday":[{"opens_at":"8:00 AM","closes_at":"9:00 PM"}],"wednesday":[{"opens_at":"8:00 AM","closes_at":"9:00 PM"}],"thursday":[{"opens_at":"8:00 AM","closes_at":"9:00 PM"}],"friday":[{"opens_at":"8:00 AM","closes_at":"3:00 PM"}],"saturday":[{"opens_at":"8:00 AM","closes_at":"2:00 PM"}]}},"College of San Mateo Library":{"name":"College of San Mateo Library","street_address":"1700 West Hillsdale Boulevard","city":"San Mateo","state":"CA","zipcode":"94402","phones":[[{"number":"650.574.6100"}]],"coordinates":[-122.3351254,37.5350798],"type":"Library","business_hours":{"sunday":[{"opens_at":": ","closes_at":": "}],"monday":[{"opens_at":"9:00 AM","closes_at":"7:00 PM"}],"tuesday":[{"opens_at":"9:00 AM","closes_at":"7:00 PM"}],"wednesday":[{"opens_at":"9:00 AM","closes_at":"7:00 PM"}],"thursday":[{"opens_at":"9:00 AM","closes_at":"7:00 PM"}],"friday":[{"opens_at":": ","closes_at":": "}],"saturday":[{"opens_at":": ","closes_at":": "}]}},"Daly City, Bayshore Branch":{"name":"Daly City, Bayshore Branch","street_address":"460 Martin Street","city":"Daly City","state":"CA","zipcode":"94014","phones":[[{"number":"650.991.8074"}]],"coordinates":[-122.4192185,37.7019288],"type":"Library","business_hours":{"sunday":[{"opens_at":": ","closes_at":": "}],"monday":[{"opens_at":"2:00 PM","closes_at":"8:00 PM"}],"tuesday":[{"opens_at":"12:00 PM","closes_at":"6:00 PM"}],"wednesday":[{"opens_at":"2:00 PM","closes_at":"8:00 PM"}],"thursday":[{"opens_at":"12:00 PM","closes_at":"6:00 PM"}],"friday":[{"opens_at":"12:00 PM","closes_at":"6:00 PM"}],"saturday":[{"opens_at":": ","closes_at":": "}]}},"Daly City, John Daly Branch":{"name":"Daly City, John Daly Branch","street_address":"134 Hillside Blvd","city":"Daly City","state":"CA","zipcode":"94014","phones":[[{"number":"650.991.8073"}]],"coordinates":[-122.4623128,37.7026088],"type":"Library","business_hours":{"sunday":[{"opens_at":": ","closes_at":": "}],"monday":[{"opens_at":"10:00 AM","closes_at":"6:00 PM"}],"tuesday":[{"opens_at":"10:00 AM","closes_at":"6:00 PM"}],"wednesday":[{"opens_at":"12:00 PM","closes_at":"8:00 PM"}],"thursday":[{"opens_at":"12:00 PM","closes_at":"6:00 PM"}],"friday":[{"opens_at":"12:00 PM","closes_at":"6:00 PM"}],"saturday":[{"opens_at":": ","closes_at":": "}]}},"Daly City, Serramonte Main":{"name":"Daly City, Serramonte Main","street_address":"40 Wembley Drive","city":"Daly City","state":"CA","zipcode":"94015","phones":[[{"number":"650.991.8023"}]],"coordinates":[-122.4704212,37.6628945],"type":"Library","business_hours":{"sunday":[{"opens_at":": ","closes_at":": "}],"monday":[{"opens_at":"10:00 AM","closes_at":"9:00 PM"}],"tuesday":[{"opens_at":"10:00 AM","closes_at":"9:00 PM"}],"wednesday":[{"opens_at":"10:00 AM","closes_at":"9:00 PM"}],"thursday":[{"opens_at":"10:00 AM","closes_at":"6:00 PM"}],"friday":[{"opens_at":"10:00 AM","closes_at":"6:00 PM"}],"saturday":[{"opens_at":"10:00 AM","closes_at":"5:00 PM"}]}},"Daly City, Westlake Branch":{"name":"Daly City, Westlake Branch","street_address":"275 Southgate Avenue","city":"Daly City","state":"CA","zipcode":"94015","phones":[[{"number":"650.991.8071"}]],"coordinates":[-122.4853508,37.696981],"type":"Library","business_hours":{"sunday":[{"opens_at":": ","closes_at":": "}],"monday":[{"opens_at":"10:00 AM","closes_at":"6:00 PM"}],"tuesday":[{"opens_at":"1:00 PM","closes_at":"9:00 PM"}],"wednesday":[{"opens_at":"10:00 AM","closes_at":"6:00 PM"}],"thursday":[{"opens_at":"10:00 AM","closes_at":"6:00 PM"}],"friday":[{"opens_at":"1:00 PM","closes_at":"6:00 PM"}],"saturday":[{"opens_at":"10:00 AM","closes_at":"5:00 PM"}]}},"East Palo Alto Library":{"name":"East Palo Alto Library","street_address":"2415 University Avenue","city":"East Palo Alto","state":"CA","zipcode":"94303","phones":[[{"number":"650.321.7712"}]],"coordinates":[-122.140106,37.472276],"type":"Library","business_hours":{"sunday":[{"opens_at":": ","closes_at":": "}],"monday":[{"opens_at":"10:00 AM","closes_at":"8:00 PM"}],"tuesday":[{"opens_at":"10:00 AM","closes_at":"8:00 PM"}],"wednesday":[{"opens_at":"10:00 AM","closes_at":"8:00 PM"}],"thursday":[{"opens_at":"10:00 AM","closes_at":"8:00 PM"}],"friday":[{"opens_at":"10:00 AM","closes_at":"6:00 PM"}],"saturday":[{"opens_at":"10:00 AM","closes_at":"5:00 PM"}]}},"Foster City Library":{"name":"Foster City Library","street_address":"1000 East Hillsdale Boulevard","city":"Foster City","state":"CA","zipcode":"94404","phones":[[{"number":"650.574.4842"}]],"coordinates":[-122.270268,37.55878000000001],"type":"Library","business_hours":{"sunday":[{"opens_at":"1:00 PM","closes_at":"5:00 PM"}],"monday":[{"opens_at":"10:00 AM","closes_at":"9:00 PM"}],"tuesday":[{"opens_at":"10:00 AM","closes_at":"9:00 PM"}],"wednesday":[{"opens_at":"10:00 AM","closes_at":"9:00 PM"}],"thursday":[{"opens_at":"10:00 AM","closes_at":"6:00 PM"}],"friday":[{"opens_at":"10:00 AM","closes_at":"6:00 PM"}],"saturday":[{"opens_at":"10:00 AM","closes_at":"5:00 PM"}]}},"Half Moon Bay Library":{"name":"Half Moon Bay Library","street_address":"620 Correas Street","city":"Half Moon Bay","state":"CA","zipcode":"94019","phones":[[{"number":"650.726.2316"}]],"coordinates":[-122.430875,37.4615401],"type":"Library","business_hours":{"sunday":[{"opens_at":"1:00 PM","closes_at":"5:00 PM"}],"monday":[{"opens_at":"10:00 AM","closes_at":"8:00 PM"}],"tuesday":[{"opens_at":"10:00 AM","closes_at":"8:00 PM"}],"wednesday":[{"opens_at":"10:00 AM","closes_at":"8:00 PM"}],"thursday":[{"opens_at":"1:00 PM","closes_at":"8:00 PM"}],"friday":[{"opens_at":"10:00 AM","closes_at":"6:00 PM"}],"saturday":[{"opens_at":"10:00 AM","closes_at":"5:00 PM"}]}},"Menlo Park":{"name":"Menlo Park","street_address":"800 Alma Street","city":"Menlo Park","state":"CA","zipcode":"94025","phones":[[{"number":"650.330.2500"}]],"coordinates":[-122.1795451,37.4532874],"type":"Library","business_hours":{"sunday":[{"opens_at":"12:00 PM","closes_at":"5:00 PM"}],"monday":[{"opens_at":"10:00 AM","closes_at":"9:00 PM"}],"tuesday":[{"opens_at":"12:00 PM","closes_at":"9:00 PM"}],"wednesday":[{"opens_at":"10:00 AM","closes_at":"9:00 PM"}],"thursday":[{"opens_at":"10:00 AM","closes_at":"6:00 PM"}],"friday":[{"opens_at":"10:00 AM","closes_at":"6:00 PM"}],"saturday":[{"opens_at":"10:00 AM","closes_at":"5:00 PM"}]}},"Menlo Park, Belle Haven Branch":{"name":"Menlo Park, Belle Haven Branch","street_address":"413 Ivy Drive","city":"Menlo Park","state":"CA","zipcode":"94025","phones":[[{"number":"650.330.2540"}]],"coordinates":[-122.161236,37.476923],"type":"Library","business_hours":{"sunday":[{"opens_at":": ","closes_at":": "}],"monday":[{"opens_at":": ","closes_at":": "}],"tuesday":[{"opens_at":"11:30 AM","closes_at":"7:00 PM"}],"wednesday":[{"opens_at":"11:30 AM","closes_at":"7:00 PM"}],"thursday":[{"opens_at":"12:00 PM","closes_at":"6:00 PM"}],"friday":[{"opens_at":"12:00 PM","closes_at":"6:00 PM"}],"saturday":[{"opens_at":"12:00 PM","closes_at":"5:00 PM"}]}},"Millbrae Library ":{"name":"Millbrae Library","street_address":"1 Library Avenue","city":"Millbrae","state":"CA","zipcode":"94030","phones":[[{"number":"650.697.7607"}]],"coordinates":[-122.3963694,37.6031482],"type":"Library","business_hours":{"sunday":[{"opens_at":"1:00 PM","closes_at":"5:00 PM"}],"monday":[{"opens_at":"10:00 AM","closes_at":"8:00 PM"}],"tuesday":[{"opens_at":"10:00 AM","closes_at":"8:00 PM"}],"wednesday":[{"opens_at":"10:00 AM","closes_at":"8:00 PM"}],"thursday":[{"opens_at":"10:00 AM","closes_at":"8:00 PM"}],"friday":[{"opens_at":"10:00 AM","closes_at":"6:00 PM"}],"saturday":[{"opens_at":"9:00 AM","closes_at":"5:00 PM"}]}},"Pacifica - Sanchez Library":{"name":"Pacifica - Sanchez Library","street_address":"1111 Terra Nova Boulevard","city":"Pacifica","state":"CA","zipcode":"94044","phones":[[{"number":"650.359.3397"}]],"coordinates":[-122.4768706,37.58610669999999],"type":"Library","business_hours":{"sunday":[{"opens_at":": ","closes_at":": "}],"monday":[{"opens_at":"12:00 PM","closes_at":"8:00 PM"}],"tuesday":[{"opens_at":"12:00 PM","closes_at":"6:00 PM"}],"wednesday":[{"opens_at":"12:00 PM","closes_at":"6:00 PM"}],"thursday":[{"opens_at":": ","closes_at":": "}],"friday":[{"opens_at":"12:00 PM","closes_at":"6:00 PM"}],"saturday":[{"opens_at":"10:00 AM","closes_at":"5:00 PM"}]}},"Pacifica - Sharp Park Library":{"name":"Pacifica - Sharp Park Library","street_address":"104 Hilton Way at Palmetto","city":"Pacifica","state":"CA","zipcode":"94044","phones":[[{"number":"650.355.5196"}]],"coordinates":[-122.4922133,37.6321489],"type":"Library","business_hours":{"sunday":[{"opens_at":": ","closes_at":": "}],"monday":[{"opens_at":"11:00 AM","closes_at":"8:00 PM"}],"tuesday":[{"opens_at":"11:00 AM","closes_at":"8:00 PM"}],"wednesday":[{"opens_at":"11:00 AM","closes_at":"8:00 PM"}],"thursday":[{"opens_at":"11:00 AM","closes_at":"6:00 PM"}],"friday":[{"opens_at":": ","closes_at":": "}],"saturday":[{"opens_at":"10:00 AM","closes_at":"5:00 PM"}]}},"Portola Valley Library":{"name":"Portola Valley Library","street_address":"765 Portola Road","city":"Portola Valley","state":"CA","zipcode":"94028","phones":[[{"number":"650.851.0560"}]],"coordinates":[-122.2289941,37.3819448],"type":"Library","business_hours":{"sunday":[{"opens_at":": ","closes_at":": "}],"monday":[{"opens_at":"11:00 AM","closes_at":"7:00 PM"}],"tuesday":[{"opens_at":"11:00 AM","closes_at":"7:00 PM"}],"wednesday":[{"opens_at":"11:00 AM","closes_at":"7:00 PM"}],"thursday":[{"opens_at":"11:00 AM","closes_at":"7:00 PM"}],"friday":[{"opens_at":"11:00 AM","closes_at":"5:00 PM"}],"saturday":[{"opens_at":"11:00 AM","closes_at":"5:00 PM"}]}},"Redwood City, Downtown Library":{"name":"Redwood City, Downtown Library","street_address":"1044 Middlefield Road","city":"Redwood City","state":"CA","zipcode":"94063","phones":[[{"number":"650.780.7018"}]],"coordinates":[-122.227542,37.4839129],"type":"Library","business_hours":{"sunday":[{"opens_at":"12:00 PM","closes_at":"5:00 PM"}],"monday":[{"opens_at":"10:00 AM","closes_at":"9:00 PM"}],"tuesday":[{"opens_at":"10:00 AM","closes_at":"9:00 PM"}],"wednesday":[{"opens_at":"10:00 AM","closes_at":"9:00 PM"}],"thursday":[{"opens_at":"10:00 AM","closes_at":"9:00 PM"}],"friday":[{"opens_at":"10:00 AM","closes_at":"5:00 PM"}],"saturday":[{"opens_at":"10:00 AM","closes_at":"5:00 PM"}]}},"Redwood City, Fair Oaks Branch":{"name":"Redwood City, Fair Oaks Branch","street_address":"2510 Middlefield Road","city":"Redwood City","state":"CA","zipcode":"94063","phones":[[{"number":"650.780.7261"}]],"coordinates":[-122.2134714,37.478051],"type":"Library","business_hours":{"sunday":[{"opens_at":": ","closes_at":": "}],"monday":[{"opens_at":"10:00 AM","closes_at":"7:00 PM"}],"tuesday":[{"opens_at":"10:00 AM","closes_at":"7:00 PM"}],"wednesday":[{"opens_at":"10:00 AM","closes_at":"7:00 PM"}],"thursday":[{"opens_at":"10:00 AM","closes_at":"7:00 PM"}],"friday":[{"opens_at":"10:00 AM","closes_at":"5:00 PM"}],"saturday":[{"opens_at":": ","closes_at":": "}]}},"Redwood City, Redwood Shores Branch ":{"name":"Redwood City, Redwood Shores Branch","street_address":"399 Marine Parkway","city":"Redwood City","state":"CA","zipcode":"94065","phones":[[{"number":"650.780.5740"}]],"coordinates":[-122.2586432,37.5304228],"type":"Library","business_hours":{"sunday":[{"opens_at":"12:00 PM","closes_at":"5:00 PM"}],"monday":[{"opens_at":"10:00 AM","closes_at":"8:00 PM"}],"tuesday":[{"opens_at":"10:00 AM","closes_at":"8:00 PM"}],"wednesday":[{"opens_at":"10:00 AM","closes_at":"8:00 PM"}],"thursday":[{"opens_at":"10:00 AM","closes_at":"8:00 PM"}],"friday":[{"opens_at":": ","closes_at":": "}],"saturday":[{"opens_at":"10:00 AM","closes_at":"5:00 PM"}]}},"Redwood City, Schaberg Branch ":{"name":"Redwood City, Schaberg Branch","street_address":"2140 Euclid Avenue","city":"Redwood City","state":"CA","zipcode":"94061","phones":[[{"number":"650.780.7010"}]],"coordinates":[-122.243876,37.4663309],"type":"Library","business_hours":{"sunday":[{"opens_at":": ","closes_at":": "}],"monday":[{"opens_at":": ","closes_at":": "}],"tuesday":[{"opens_at":"1:00 PM","closes_at":"6:00 PM"}],"wednesday":[{"opens_at":"1:00 PM","closes_at":"6:00 PM"}],"thursday":[{"opens_at":"1:00 PM","closes_at":"6:00 PM"}],"friday":[{"opens_at":": ","closes_at":": "}],"saturday":[{"opens_at":"10:00 AM","closes_at":"3:00 PM"}]}},"Skyline College Library":{"name":"Skyline College Library","street_address":"3300 College Drive","city":"San Bruno","state":"CA","zipcode":"94066","phones":[[{"number":"650.738.4311"}]],"coordinates":[-122.4672096,37.6309074],"type":"Library","business_hours":{"sunday":[{"opens_at":": ","closes_at":": "}],"monday":[{"opens_at":"8:00 AM","closes_at":"9:00 PM"}],"tuesday":[{"opens_at":"8:00 AM","closes_at":"9:00 PM"}],"wednesday":[{"opens_at":"8:00 AM","closes_at":"9:00 PM"}],"thursday":[{"opens_at":"8:00 AM","closes_at":"9:00 PM"}],"friday":[{"opens_at":"8:00 AM","closes_at":"2:00 PM"}],"saturday":[{"opens_at":"10:00 AM","closes_at":"2:00 PM"}]}},"San Bruno":{"name":"San Bruno","street_address":"701 Angus Avenue West","city":"San Bruno","state":"CA","zipcode":"94066","phones":[[{"number":"650.616.7078"}]],"coordinates":[-122.4149425,37.6253365],"type":"Library","business_hours":{"sunday":[{"opens_at":": ","closes_at":": "}],"monday":[{"opens_at":"11:00 AM","closes_at":"8:00 PM"}],"tuesday":[{"opens_at":"11:00 AM","closes_at":"8:00 PM"}],"wednesday":[{"opens_at":"11:00 AM","closes_at":"8:00 PM"}],"thursday":[{"opens_at":"11:00 AM","closes_at":"8:00 PM"}],"friday":[{"opens_at":"1:00 PM","closes_at":"5:00 PM"}],"saturday":[{"opens_at":"10:00 AM","closes_at":"5:00 PM"}]}},"San Carlos Library ":{"name":"San Carlos Library","street_address":"610 Elm Street","city":"San Carlos","state":"CA","zipcode":"94070","phones":[[{"number":"650.591.0341"}]],"coordinates":[-122.261743,37.50403],"type":"Library","business_hours":{"sunday":[{"opens_at":"1:00 PM","closes_at":"5:00 PM"}],"monday":[{"opens_at":"10:00 AM","closes_at":"9:00 PM"}],"tuesday":[{"opens_at":"10:00 AM","closes_at":"9:00 PM"}],"wednesday":[{"opens_at":"10:00 AM","closes_at":"9:00 PM"}],"thursday":[{"opens_at":"10:00 AM","closes_at":"6:00 PM"}],"friday":[{"opens_at":"10:00 AM","closes_at":"6:00 PM"}],"saturday":[{"opens_at":"10:00 AM","closes_at":"5:00 PM"}]}},"San Mateo City - Main Library":{"name":"San Mateo City - Main Library","street_address":"55 West 3rd Avenue","city":"San Mateo","state":"CA","zipcode":"94402","phones":[[{"number":"650.522.7800"}]],"coordinates":[-122.327036,37.561869],"type":"Library","business_hours":{"sunday":[{"opens_at":"1:00 PM","closes_at":"5:00 PM"}],"monday":[{"opens_at":"11:00 AM","closes_at":"8:00 PM"}],"tuesday":[{"opens_at":"11:00 AM","closes_at":"8:00 PM"}],"wednesday":[{"opens_at":"11:00 AM","closes_at":"8:00 PM"}],"thursday":[{"opens_at":"11:00 AM","closes_at":"8:00 PM"}],"friday":[{"opens_at":"11:00 AM","closes_at":"5:00 PM"}],"saturday":[{"opens_at":"11:00 AM","closes_at":"5:00 PM"}]}},"San Mateo City, Hillsdale Branch":{"name":"San Mateo City, Hillsdale Branch","street_address":"205 West Hillsdale Boulevard","city":"San Mateo","state":"CA","zipcode":"94403","phones":[[{"number":"650.522.7880"}]],"coordinates":[-122.3048754,37.5336411],"type":"Library","business_hours":{"sunday":[{"opens_at":": ","closes_at":": "}],"monday":[{"opens_at":"1:00 PM","closes_at":"5:00 PM"}],"tuesday":[{"opens_at":"2:00 PM","closes_at":"8:00 PM"}],"wednesday":[{"opens_at":"10:00 AM","closes_at":"5:00 PM"}],"thursday":[{"opens_at":"1:00 PM","closes_at":"5:00 PM"}],"friday":[{"opens_at":": ","closes_at":": "}],"saturday":[{"opens_at":"11:00 AM","closes_at":"5:00 PM"}]}},"San Mateo City, Marina Branch":{"name":"San Mateo City, Marina Branch","street_address":"1530 Susan Court","city":"San Mateo","state":"CA","zipcode":"94403","phones":[[{"number":"650.522.7890"}]],"coordinates":[-122.2936227,37.5560205],"type":"Library","business_hours":{"sunday":[{"opens_at":": ","closes_at":": "}],"monday":[{"opens_at":"2:00 PM","closes_at":"8:00 PM"}],"tuesday":[{"opens_at":"10:00 AM","closes_at":"5:00 PM"}],"wednesday":[{"opens_at":"1:00 PM","closes_at":"5:00 PM"}],"thursday":[{"opens_at":": ","closes_at":": "}],"friday":[{"opens_at":"1:00 PM","closes_at":"5:00 PM"}],"saturday":[{"opens_at":"11:00 AM","closes_at":"5:00 PM"}]}},"South San Francisco, Grand Avenue Branch":{"name":"South San Francisco, Grand Avenue Branch","street_address":"306 Walnut Avenue","city":"South San Francisco","state":"CA","zipcode":"94080","phones":[[{"number":"650-877-8530"}]],"coordinates":[-122.4142536,37.656156],"type":"Library","business_hours":{"sunday":[{"opens_at":": ","closes_at":": "}],"monday":[{"opens_at":"10:00 AM","closes_at":"6:00 PM"}],"tuesday":[{"opens_at":"10:00 AM","closes_at":"6:00 PM"}],"wednesday":[{"opens_at":"12:00 PM","closes_at":"8:00 PM"}],"thursday":[{"opens_at":"10:00 AM","closes_at":"6:00 PM"}],"friday":[{"opens_at":": ","closes_at":": "}],"saturday":[{"opens_at":": ","closes_at":": "}]}},"South San Francisco - Main":{"name":"South San Francisco - Main","street_address":"840 West Orange Avenue","city":"South San Francisco","state":"CA","zipcode":"94080","phones":[[{"number":"650.829.3860"}]],"coordinates":[-122.4364291,37.6524934],"type":"Library","business_hours":{"sunday":[{"opens_at":"2:00 PM","closes_at":"5:00 PM"}],"monday":[{"opens_at":"10:00 AM","closes_at":"8:00 PM"}],"tuesday":[{"opens_at":"10:00 AM","closes_at":"8:00 PM"}],"wednesday":[{"opens_at":"10:00 AM","closes_at":"6:00 PM"}],"thursday":[{"opens_at":"12:00 PM","closes_at":"8:00 PM"}],"friday":[{"opens_at":"10:00 AM","closes_at":"6:00 PM"}],"saturday":[{"opens_at":"10:00 AM","closes_at":"5:00 PM"}]}},"Woodside Library":{"name":"Woodside Library","street_address":"3140 Woodside Road","city":"Woodside","state":"CA","zipcode":"94062","phones":[[{"number":"650.851.0147"}]],"coordinates":[-122.2575811,37.428704],"type":"Library","business_hours":{"sunday":[{"opens_at":": ","closes_at":": "}],"monday":[{"opens_at":"11:00 AM","closes_at":"7:00 PM"}],"tuesday":[{"opens_at":"11:00 AM","closes_at":"7:00 PM"}],"wednesday":[{"opens_at":"11:00 AM","closes_at":"7:00 PM"}],"thursday":[{"opens_at":"11:00 AM","closes_at":"7:00 PM"}],"friday":[{"opens_at":"11:00 AM","closes_at":"5:00 PM"}],"saturday":[{"opens_at":"11:00 AM","closes_at":"5:00 PM"}]}}}